City,Lat,Lng,Max_Temp,Humidity,Cloudiness,Wind Speed,Country,Date
nizhneudinsk,54.91,99.03,272.08,89,100,1.68,RU,1604081644
kapaa,22.08,-159.32,293.71,88,40,3.6,US,1604081505
mount isa,-20.73,139.5,294.15,19,0,5.1,AU,1604081645
bengkulu,-3.8,102.27,297.7,87,99,1.69,ID,1604081645
yellowknife,62.46,-114.35,265.93,94,100,0.45,CA,1604081285
dikson,73.51,80.55,262.25,95,100,12.78,RU,1604081541
acapulco,16.86,-99.89,304.15,70,75,2.26,MX,1604081646
ushuaia,-54.8,-68.3,283.15,71,75,12.3,AR,1604081634
longyearbyen,78.22,15.64,265.15,72,0,1.5,SJ,1604081646
mahajanga,-15.72,46.32,303.15,33,20,4.6,MG,1604081647
rikitea,-23.12,-134.97,297.31,69,62,3.58,PF,1604081647
bathsheba,13.22,-59.52,301.15,78,75,8.7,BB,1604081647
bandarbeyla,9.49,50.81,299.35,82,40,6.69,SO,1604081589
ribeira grande,38.52,-28.7,294.15,88,75,9.3,PT,1604081648
kungurtug,50.6,97.52,268.05,86,100,1.72,RU,1604081648
puerto ayora,-0.74,-90.35,300.15,65,40,9.3,EC,1604081648
upernavik,72.79,-56.15,267.12,96,99,1.85,GL,1604081648
lubu,23.17,112.28,297.59,99,10,1.03,CN,1604081649
vaini,-21.2,-175.2,295.15,78,40,4.1,TO,1604081649
kashmor,28.43,69.58,295.49,22,0,1.35,PK,1604081649
hamilton,39.18,-84.53,282.59,61,75,4.6,US,1604081486
hobart,-42.88,147.33,279.15,93,40,1.5,AU,1604081510
saint anthony,45.02,-93.22,279.26,55,90,3.1,US,1604081503
sterling,39.01,-77.43,284.82,62,90,4.6,US,1604081651
adrar,20.5,-10.07,305.35,13,94,2.48,MR,1604081652
mataura,-46.19,168.86,285.93,97,100,2.24,NZ,1604081652
jiuquan,39.74,98.52,274.1,79,0,1.1,CN,1604081653
chissamba,-12.17,17.33,292.75,84,85,2.3,AO,1604081653
waipawa,-41.41,175.52,290.15,88,96,9.8,NZ,1604081654
faanui,-16.48,-151.75,299.26,78,0,5.22,PF,1604081640
shinshiro,34.9,137.5,284.82,57,0,0.89,JP,1604081655
jamestown,42.1,-79.24,276.48,93,90,3.6,US,1604081431
algiers,36.75,3.04,291.15,77,0,2.1,DZ,1604081534
busselton,-33.65,115.33,289.82,57,23,1.35,AU,1604081656
morgan city,29.7,-91.21,288.71,71,90,2.6,US,1604081636
hambantota,6.12,81.12,299.63,79,74,4.69,LK,1604081656
sipe sipe,-17.45,-66.38,295.15,37,20,3.1,BO,1604081657
mugan,35.94,101.38,275.63,79,24,2.03,CN,1604081657
husavik,66.04,-17.34,276.15,93,90,2.1,IS,1604081657
anori,-3.77,-61.64,307.66,50,89,1.59,BR,1604081657
khatanga,71.97,102.5,250.68,84,0,2.92,RU,1604081637
port alfred,-33.59,26.89,289.12,59,87,1.74,ZA,1604081658
borogontsy,62.67,131.17,249.48,90,21,0.85,RU,1604081658
atuona,-9.8,-139.03,298.29,74,60,5.94,PF,1604081659
luderitz,-26.65,15.16,290.79,48,73,13.66,NA,1604081659
avarua,-21.21,-159.78,296.15,78,100,2.6,CK,1604081659
bonfim,3.08,-59.95,306.36,52,66,3.84,BR,1604081659
cabo san lucas,22.89,-109.91,302.59,61,40,0.9,MX,1604081429
hilo,19.73,-155.09,298.71,88,75,2.1,US,1604081586
rio gallegos,-51.62,-69.22,291.15,36,40,13.4,AR,1604081660
cape town,-33.93,18.42,288.71,62,0,11.3,ZA,1604081412
weymouth,42.22,-70.94,273.71,92,90,7.7,US,1604081661
lagoa,39.05,-27.98,293.65,89,100,12.53,PT,1604081655
rio grande,-32.03,-52.1,293.71,63,41,3.13,BR,1604081492
punta arenas,-53.15,-70.92,285.93,66,75,14.4,CL,1604081513
canutama,-6.53,-64.38,303.7,59,92,2.02,BR,1604081662
yatou,37.15,122.38,284.27,68,15,1.93,CN,1604081662
hithadhoo,-0.6,73.08,301.58,76,25,4.63,MV,1604081662
batagay,67.63,134.63,254.06,91,100,1.12,RU,1604081663
klyuchi,52.27,79.17,274.65,94,100,3.14,RU,1604081663
esperance,-33.87,121.9,287.15,71,48,6.7,AU,1604081664
albany,42.6,-73.97,274.82,87,100,3.03,US,1604081523
pevek,69.7,170.31,268.33,93,80,3.24,RU,1604081529
palimbang,6.21,124.19,299.38,77,91,1.08,PH,1604081664
bambous virieux,-20.34,57.76,294.15,52,40,6.2,MU,1604081664
isangel,-19.55,169.27,296.82,81,73,4.78,VU,1604081665
klaksvik,62.23,-6.59,281.15,81,34,8.2,FO,1604081656
juegang,32.32,121.19,288.71,99,0,1.7,CN,1604081666
castro,-24.79,-50.01,286.4,93,100,4.92,BR,1604081516
loiza,18.43,-65.88,304.15,62,40,9.3,PR,1604081575
leningradskiy,69.38,178.42,264.84,93,52,8.53,RU,1604081668
kavieng,-2.57,150.8,300.74,77,95,3.58,PG,1604081668
new norfolk,-42.78,147.06,279.82,72,4,1.11,AU,1604081635
nipawin,53.37,-104.0,269.15,92,90,7.2,CA,1604081670
kaitangata,-46.28,169.85,287.59,95,100,1.79,NZ,1604081652
saint-philippe,-21.36,55.77,294.15,68,75,7.7,RE,1604081635
san cristobal,7.77,-72.22,304.15,58,40,4.6,VE,1604081670
homer,59.64,-151.55,270.37,57,1,3.1,US,1604081671
ilulissat,69.22,-51.1,266.15,67,75,1.0,GL,1604081671
qaanaaq,77.48,-69.36,263.75,83,100,2.6,GL,1604081671
sambava,-14.27,50.17,295.94,77,41,7.3,MG,1604081671
iqaluit,63.75,-68.51,257.15,65,20,2.6,CA,1604081672
buchanan,5.88,-10.05,301.15,83,75,4.1,LR,1604081672
lata,40.16,-8.33,293.15,64,0,1.5,PT,1604081672
port lincoln,-34.73,135.87,286.67,84,93,5.17,AU,1604081673
kavaratti,10.57,72.64,301.17,75,26,4.18,IN,1604081673
sioux lookout,50.1,-91.92,271.15,79,90,4.6,CA,1604081673
norman wells,65.28,-126.83,262.15,92,75,1.0,CA,1604081673
tura,25.52,90.22,296.34,79,8,1.9,IN,1604081674
turukhansk,65.82,87.98,256.97,91,58,3.42,RU,1604081640
bredasdorp,-34.53,20.04,285.15,62,0,2.1,ZA,1604081674
hermanus,-34.42,19.23,285.93,75,0,5.35,ZA,1604081675
vuktyl,63.86,57.31,275.23,92,100,6.47,RU,1604081675
matara,5.95,80.54,298.63,85,51,2.98,LK,1604081675
honningsvag,70.98,25.97,275.15,64,75,6.2,NO,1604081676
laguna,38.42,-121.42,292.04,36,1,1.65,US,1604081676
kloulklubed,7.04,134.26,299.15,88,75,3.6,PW,1604081676
roma,43.21,-75.46,278.15,60,40,4.6,US,1604081404
udalguri,26.77,92.13,295.35,59,10,2.1,IN,1604081656
stornoway,58.21,-6.39,281.15,81,40,6.2,GB,1604081677
shiyan,32.65,110.78,287.45,87,100,1.1,CN,1604081677
tomatlan,19.93,-105.25,303.9,62,69,2.32,MX,1604081678
bluff,-46.6,168.33,285.93,97,100,2.24,NZ,1604081632
berlevag,70.86,29.09,274.15,86,90,10.8,NO,1604081678
tiksi,71.69,128.87,261.43,96,100,2.72,RU,1604081669
saldanha,-33.01,17.94,289.15,55,0,8.7,ZA,1604081519
kahului,20.89,-156.47,298.15,78,40,4.6,US,1604081679
sao filipe,14.9,-24.5,302.0,53,58,7.77,CV,1604081679
port elizabeth,-33.92,25.57,286.15,71,0,1.5,ZA,1604081680
victoria,22.29,114.16,296.48,78,62,7.77,HK,1604081585
vao,-22.67,167.48,296.03,85,20,5.75,NC,1604081536
caluquembe,-13.78,14.68,291.96,81,99,1.89,AO,1604081682
cidreira,-30.18,-50.21,291.83,61,64,4.55,BR,1604081643
carnarvon,-24.87,113.63,296.15,78,90,3.1,AU,1604081683
ratnagiri,16.98,73.3,299.29,73,51,2.6,IN,1604081683
wanaka,-44.7,169.15,284.66,83,100,2.05,NZ,1604081684
saint-pierre,-21.34,55.48,294.15,68,75,7.7,RE,1604081684
quimper,48.0,-4.1,287.15,93,90,4.1,FR,1604081685
butaritari,3.07,172.79,300.64,79,62,8.08,KI,1604081660
nome,64.5,-165.41,263.15,85,75,1.98,US,1604081543
zabol,32.25,67.25,279.62,49,0,3.2,AF,1604081686
shimoda,34.67,138.95,280.93,81,1,5.83,JP,1604081545
katsuura,35.13,140.3,286.15,50,0,6.2,JP,1604081648
mahebourg,-20.41,57.7,294.15,52,40,6.2,MU,1604081686
fortuna,40.6,-124.16,284.15,81,1,1.5,US,1604081516
dakar,14.69,-17.44,304.15,58,0,8.2,SN,1604081475
praia,14.92,-23.51,303.15,58,0,9.3,CV,1604081687
vila franca do campo,37.72,-25.43,294.15,88,75,7.7,PT,1604081655
wonthaggi,-38.6,145.59,285.93,94,6,4.06,AU,1604081559
la rioja,42.25,-2.5,289.26,72,0,1.89,ES,1604081567
tommot,58.96,126.29,259.95,93,98,0.15,RU,1604081688
gusau,12.16,6.66,302.23,24,5,2.92,NG,1604081688
gwadar,25.12,62.33,296.86,47,0,3.55,PK,1604081689
saskylakh,71.92,114.08,254.23,85,31,2.72,RU,1604081632
kemijarvi,66.71,27.43,270.04,96,0,1.31,FI,1604081689
manuk mangkaw,4.8,119.85,301.02,81,76,6.08,PH,1604081689
egvekinot,66.32,-179.17,262.2,85,93,3.59,RU,1604081690
arraial do cabo,-22.97,-42.03,298.15,83,75,7.7,BR,1604081690
hualmay,-11.1,-77.61,293.52,68,100,3.65,PE,1604081559
pangody,65.85,74.49,268.43,98,95,4.11,RU,1604081690
tanout,14.97,8.89,302.83,14,16,4.24,NE,1604081691
kalabo,-14.97,22.68,301.16,28,59,0.83,ZM,1604081691
bethel,41.37,-73.41,275.93,93,90,3.1,US,1604081691
east london,-33.02,27.91,287.15,93,75,2.6,ZA,1604081691
oranjestad,12.52,-70.03,305.15,66,40,4.1,AW,1604081692
gushikawa,26.35,127.87,293.15,72,20,3.1,JP,1604081692
san pedro,14.35,121.02,302.15,74,75,1.0,PH,1604081693
dawson creek,55.77,-120.24,272.17,98,100,5.86,CA,1604081499
arlit,18.74,7.39,302.91,13,0,8.27,NE,1604081693
okato,-39.2,173.88,288.71,93,100,6.26,NZ,1604081694
pitimbu,-7.47,-34.81,303.15,62,40,6.2,BR,1604081694
fairbanks,64.84,-147.72,262.04,85,90,0.89,US,1604081594
georgetown,5.41,100.34,300.15,83,40,1.5,MY,1604081465
kozan,37.46,35.82,297.04,53,0,3.1,TR,1604081694
kalmunai,7.42,81.82,299.99,79,78,1.67,LK,1604081695
hasaki,35.73,140.83,279.15,87,0,1.5,JP,1604081535
sabzevar,36.21,57.68,283.24,53,0,1.03,IR,1604081696
salalah,17.02,54.09,300.15,57,0,1.5,OM,1604081655
behbahan,30.6,50.24,297.15,27,0,3.1,IR,1604081697
severo-yeniseyskiy,60.37,93.04,254.94,94,25,0.59,RU,1604081698
barrow,71.29,-156.79,266.15,92,90,6.2,US,1604081698
americus,32.07,-84.23,293.15,45,1,4.6,US,1604081699
namibe,-15.2,12.15,295.76,75,14,2.21,AO,1604081699
rawson,-43.3,-65.1,294.32,23,1,5.78,AR,1604081700
mount gambier,-37.83,140.77,283.15,93,90,2.6,AU,1604081700
yabrud,33.97,36.66,296.15,25,40,1.5,SY,1604081700
sabang,5.89,95.32,301.04,77,90,7.68,ID,1604081701
kidal,18.44,1.41,302.73,13,0,4.82,ML,1604081701
den helder,52.96,4.76,287.59,93,90,7.2,NL,1604081703
nikolskoye,59.7,30.79,281.48,87,90,3.0,RU,1604081704
flin flon,54.77,-101.86,268.15,67,90,3.1,CA,1604081705
bonavista,48.65,-53.11,275.37,55,55,3.6,CA,1604081705
geraldton,-28.77,114.6,292.15,88,0,2.6,AU,1604081706
moa,20.66,-74.94,302.96,69,100,3.76,CU,1604081707
chokurdakh,70.63,147.92,259.2,95,100,2.76,RU,1604081572
kinlochleven,56.71,-4.97,279.82,89,59,2.49,GB,1604081708
ligayan,4.65,119.47,300.91,80,50,5.44,PH,1604081708
fort nelson,58.81,-122.7,266.86,93,100,4.46,CA,1604081526
barcelos,41.54,-8.62,291.48,72,0,2.1,PT,1604081709
kapit,2.02,112.93,296.42,94,99,0.57,MY,1604081709
los llanos de aridane,28.66,-17.92,296.15,78,40,5.7,ES,1604081709
portland,45.52,-122.68,284.82,87,90,3.1,US,1604081427
nuuk,64.18,-51.72,269.15,73,20,4.1,GL,1604081711
tasiilaq,65.61,-37.64,273.15,96,75,1.5,GL,1604081639
thompson,55.74,-97.86,267.01,85,41,1.08,CA,1604081515
zihuatanejo,17.63,-101.55,306.15,59,40,1.83,MX,1604081712
clyde river,70.47,-68.59,264.61,92,91,2.37,CA,1604081502
pangai,-19.8,-174.35,296.15,64,40,7.7,TO,1604081714
riverton,40.52,-111.94,287.59,43,1,6.2,US,1604081714
koroni,36.8,21.95,292.59,68,20,3.6,GR,1604081715
sistranda,63.73,8.83,282.15,61,0,9.3,NO,1604081715
yumen,40.28,97.2,273.19,83,27,4.76,CN,1604081669
mata,40.68,-7.46,288.71,76,0,0.45,PT,1604081716
zaterechnyy,44.79,45.21,285.93,93,16,2.73,RU,1604081716
verkhnevilyuysk,63.45,120.32,251.14,91,61,0.94,RU,1604081527
prabumulih,-3.45,104.25,297.23,89,91,0.45,ID,1604081717
tautira,-17.73,-149.15,302.15,70,40,1.0,PF,1604081717
chuchkovo,54.27,41.45,279.0,85,100,2.41,RU,1604081718
hirara,24.8,125.28,295.78,68,61,10.27,JP,1604081598
pisco,-13.7,-76.22,293.71,72,0,5.7,PE,1604081718
luanda,-8.84,13.23,299.15,83,40,4.1,AO,1604081489
torbay,47.67,-52.73,275.93,58,70,0.89,CA,1604081564
chibombo,-14.66,28.07,298.12,28,3,2.73,ZM,1604081719
akyab,20.15,92.9,299.73,80,68,3.67,MM,1604081719
antofagasta,-23.65,-70.4,290.15,63,0,5.1,CL,1604081669
bondo,3.81,23.69,294.48,98,81,0.94,CD,1604081720
caravelas,-17.71,-39.25,301.11,63,72,5.54,BR,1604081550
sao joao da barra,-21.64,-41.05,301.15,74,75,6.2,BR,1604081721
paamiut,61.99,-49.67,270.15,84,97,4.58,GL,1604081721
lakes entrance,-37.88,147.98,286.48,94,33,0.89,AU,1604081721
awjilah,29.11,21.29,295.75,51,32,5.49,LY,1604081722
rodeo,38.03,-122.27,292.04,68,0,0.89,US,1604081722
taksimo,56.34,114.88,264.96,92,54,0.64,RU,1604081722
seoul,37.57,126.98,279.15,81,1,1.2,KR,1604081426
erzurum,40.0,41.5,287.15,33,75,3.1,TR,1604081723
moranbah,-22.0,148.05,294.96,70,0,5.96,AU,1604081723
woodward,36.43,-99.39,289.15,44,1,5.1,US,1604081439
changping,40.22,116.22,288.71,58,71,1.79,CN,1604081724
lebu,-37.62,-73.65,288.3,66,0,5.84,CL,1604081633
statesboro,32.45,-81.78,295.15,52,1,4.1,US,1604081441
nanhai,30.13,111.78,289.08,84,100,1.19,CN,1604081724
broken hill,-31.95,141.43,285.15,81,75,8.2,AU,1604081639
neiafu,-18.65,-173.98,296.15,73,40,4.1,TO,1604081725
lavrentiya,65.58,-171.0,267.47,86,81,3.06,RU,1604081726
robertsport,6.75,-11.37,300.77,76,61,3.99,LR,1604081726
taltal,-25.4,-70.48,290.87,55,13,3.12,CL,1604081727
colmenar viejo,40.66,-3.77,289.82,67,0,0.5,ES,1604081495
honggang,46.47,124.87,279.01,58,100,7.2,CN,1604081728
guerrero negro,27.98,-114.06,298.81,30,21,1.2,MX,1604081729
sitka,57.05,-135.33,277.15,93,75,2.68,US,1604081729
beloha,-25.17,45.05,295.2,55,0,6.18,MG,1604081730
iquitos,-3.75,-73.25,298.15,73,75,7.7,PE,1604081730
brigantine,39.41,-74.36,280.15,81,90,6.7,US,1604081730
mao,39.89,4.27,290.15,82,0,1.0,ES,1604081731
kimbe,-5.55,150.14,297.55,86,93,1.47,PG,1604081731
tuktoyaktuk,69.45,-133.04,259.15,84,75,3.1,CA,1604081645
jiexiu,37.02,111.91,284.84,69,99,4.23,CN,1604081732
tumut,-35.3,148.22,284.96,87,70,2.64,AU,1604081732
hovd,48.01,91.64,271.91,79,64,2.5,MN,1604081732
port macquarie,-31.43,152.92,292.15,88,90,1.5,AU,1604081653
conselheiro pena,-19.17,-41.47,301.26,73,93,2.4,BR,1604081733
constitucion,-35.33,-72.42,293.17,51,0,2.77,CL,1604081733
tamandare,-8.76,-35.1,301.02,70,71,4.6,BR,1604081546
huarmey,-10.07,-78.15,293.52,68,94,3.81,PE,1604081734
tiarei,-17.53,-149.33,302.15,70,40,1.0,PF,1604081734
sheremetyevskiy,55.98,37.49,278.15,80,90,2.0,RU,1604081735
dingle,11.0,122.67,298.06,91,100,3.17,PH,1604081530
lorengau,-2.02,147.27,300.19,75,100,1.32,PG,1604081735
mount hagen,-5.86,144.23,287.28,91,99,0.31,PG,1604081736
flinders,-34.58,150.86,290.37,93,100,0.45,AU,1604081652
tucumcari,35.17,-103.72,289.15,51,1,5.7,US,1604081736
chipinge,-20.19,32.62,293.63,60,0,5.23,ZW,1604081736
vestmannaeyjar,63.44,-20.27,279.15,93,90,10.8,IS,1604081737
urumqi,43.8,87.6,276.15,69,0,1.0,CN,1604081738
mwense,-10.38,28.7,298.84,38,65,1.39,ZM,1604081738
narsaq,60.92,-46.05,272.15,63,75,0.5,GL,1604081738
nanortalik,60.14,-45.24,271.39,92,93,2.36,GL,1604081659
novikovo,51.15,37.89,282.26,95,100,2.77,RU,1604081663
lasa,46.62,10.7,282.59,57,5,3.04,IT,1604081740
ondjiva,-17.07,15.73,301.12,36,26,1.74,AO,1604081741
lompoc,34.64,-120.46,289.15,81,1,2.89,US,1604081644
lahaina,20.88,-156.68,299.15,69,40,3.6,US,1604081742
tieling,42.29,123.84,284.26,53,73,0.89,CN,1604081742
lagos,6.58,3.75,302.15,74,20,4.6,NG,1604081070
bitlis,38.5,42.25,285.37,38,68,3.02,TR,1604081744
bubaque,11.28,-15.83,302.84,63,64,3.4,GW,1604081744
acarau,-2.89,-40.12,303.22,56,52,8.63,BR,1604081744
lakselv,70.05,24.97,274.15,64,75,6.7,NO,1604081745
koboko,3.41,30.96,290.77,95,79,0.73,UG,1604081745
glenwood springs,39.55,-107.32,281.15,40,1,1.5,US,1604081447
pudozh,61.81,36.53,278.38,92,61,1.64,RU,1604081745
ambon,-3.7,128.18,298.15,15,9,3.5,ID,1604081646
dayong,25.02,118.29,293.15,52,0,8.0,CN,1604081747
puerto carreno,6.19,-67.49,307.16,52,79,2.56,CO,1604081519
port hueneme,34.15,-119.2,296.48,59,1,2.1,US,1604081747
abu samrah,35.3,37.18,293.91,50,100,3.23,SY,1604081652
newport,51.59,-3.0,287.59,97,100,5.83,GB,1604081747
sokoto,13.06,5.24,303.85,18,0,3.43,NG,1604081748
mar del plata,-38.0,-57.56,289.15,59,0,4.6,AR,1604081748
diego de almagro,-26.37,-70.05,301.47,14,0,7.16,CL,1604081748
polovinnoye,54.79,65.99,272.5,94,51,3.35,RU,1604081748
chuy,-33.7,-53.46,289.48,67,34,5.69,UY,1604081651
garden city,42.33,-83.33,278.15,51,90,5.1,US,1604081749
airai,-8.93,125.41,289.02,92,37,0.55,TL,1604081749
vanderhoof,54.02,-124.02,276.08,79,100,6.01,CA,1604081703
porterville,36.07,-119.02,294.82,34,1,1.5,US,1604081619
ponta do sol,32.67,-17.1,295.15,73,20,8.2,PT,1604081750
sao sebastiao do passe,-12.51,-38.5,302.15,70,20,7.7,BR,1604081750
cherskiy,68.75,161.3,258.26,91,100,2.1,RU,1604081521
karratha,-20.74,116.85,296.64,65,0,2.88,AU,1604081751
provideniya,64.38,-173.3,268.84,93,96,2.65,RU,1604081751
tual,-5.67,132.75,301.4,73,32,4.15,ID,1604081751
varzea da palma,-17.6,-44.73,303.72,54,52,3.56,BR,1604081570
soria,41.67,-2.67,287.59,53,0,2.24,ES,1604081752
agadez,19.75,10.25,297.32,18,0,3.37,NE,1604081528
avera,33.19,-82.53,294.15,52,1,3.1,US,1604081656
bontang,0.13,117.5,299.9,82,63,1.48,ID,1604081753
canico,32.63,-16.85,295.15,73,20,8.2,PT,1604081753
saint george,37.1,-113.58,292.04,22,1,1.33,US,1604081645
stromness,58.97,-3.3,281.15,81,20,6.7,GB,1604081754
dubbo,-32.25,148.62,286.15,93,90,2.6,AU,1604081754
nueva loja,0.08,-76.88,301.15,74,75,3.1,EC,1604081754
baykit,61.67,96.37,257.93,90,42,1.82,RU,1604081755
makakilo city,21.35,-158.09,298.71,65,1,4.1,US,1604081755
tabuk,17.42,121.44,295.76,87,87,2.75,PH,1604081756
jurbarkas,55.08,22.77,282.32,88,98,4.79,LT,1604081756
calama,-22.47,-68.93,295.15,10,0,6.7,CL,1604081757
souillac,-20.52,57.52,294.15,52,40,6.2,MU,1604081757
grindavik,63.84,-22.43,278.15,80,75,8.2,IS,1604081553
pio ix,-6.84,-40.58,309.0,22,94,5.03,BR,1604081759
sola,-13.88,167.55,300.16,77,100,5.78,VU,1604081759
morant bay,17.88,-76.41,304.26,70,40,3.1,JM,1604081759
rizia,41.62,26.43,285.3,54,43,4.46,GR,1604081760
srandakan,-7.94,110.25,298.81,86,98,1.16,ID,1604081760
naze,28.37,129.48,296.15,64,75,10.8,JP,1604081760
bac lieu,9.29,105.72,299.23,84,32,1.74,VN,1604081661
urucara,-2.54,-57.76,310.27,38,98,1.57,BR,1604081761
lydenburg,-25.1,30.46,296.48,46,8,0.89,ZA,1604081761
chamba,32.57,76.13,286.9,35,0,3.33,IN,1604081468
camacha,33.08,-16.33,294.15,73,20,5.1,PT,1604081762
ixtapa,20.7,-105.2,302.15,62,5,2.1,MX,1604081762
nishihara,26.18,127.76,295.15,64,5,2.6,JP,1604081505
codrington,-38.27,141.97,283.2,90,0,4.05,AU,1604081556
celestun,20.87,-90.4,299.11,77,97,7.77,MX,1604081763
sinnamary,5.38,-52.95,303.87,62,29,5.85,GF,1604081508
manicore,-5.81,-61.3,305.42,60,96,0.38,BR,1604081661
marovoay,-16.1,46.63,303.15,33,20,4.6,MG,1604081763
tokur,53.13,132.9,269.14,94,100,1.05,RU,1604081527
noumea,-22.28,166.46,295.15,78,0,2.6,NC,1604081764
bachaquero,9.97,-71.15,304.44,61,90,2.78,VE,1604081764
christchurch,-43.53,172.63,290.37,72,97,0.5,NZ,1604081647
nabire,-3.37,135.48,297.04,88,100,2.23,ID,1604081720
aklavik,68.22,-135.01,257.15,91,75,5.1,CA,1604081645
ereymentau,51.62,73.1,272.85,97,46,2.0,KZ,1604081765
abnub,27.27,31.15,300.15,54,0,7.7,EG,1604081766
marzuq,14.4,46.47,294.07,64,0,1.6,YE,1604081766
ornskoldsvik,63.29,18.72,275.15,93,90,1.5,SE,1604081767
pringsewu,-5.36,104.97,296.96,89,97,0.65,ID,1604081767
shache,38.42,77.24,278.05,65,26,3.26,CN,1604081767
tuatapere,-46.13,167.68,285.93,97,100,2.24,NZ,1604081767
verkhoyansk,67.54,133.38,253.73,90,92,1.51,RU,1604081768
jining,35.41,116.58,289.82,1,40,3.09,CN,1604081768
arman,59.7,150.17,272.14,96,99,4.67,RU,1604081768
neryungri,56.67,124.65,260.82,92,53,0.48,RU,1604081768
dali,25.7,100.18,286.96,87,44,1.57,CN,1604081769
san jeronimo,-11.95,-75.28,291.5,41,100,3.85,PE,1604081769
santa rosalia,27.32,-112.28,297.79,29,100,1.77,MX,1604081769
kodiak,57.79,-152.41,274.15,74,90,2.1,US,1604081770
ahipara,-35.17,173.17,289.89,93,92,3.75,NZ,1604081598
amapa,1.0,-52.0,310.28,27,68,3.43,BR,1604081588
sur,22.57,59.53,296.5,64,0,2.04,OM,1604081772
pacific grove,36.62,-121.92,290.15,93,40,2.59,US,1604081536
tutoia,-2.76,-42.27,306.15,52,20,9.3,BR,1604081774
carutapera,-1.2,-46.02,303.8,56,32,4.65,BR,1604081774
pangoa,-12.12,-73.0,297.33,92,100,1.35,PE,1604081774
nacala,-14.54,40.67,298.96,73,0,2.36,MZ,1604081775
hantsport,45.07,-64.17,276.48,55,98,5.7,CA,1604081775
burnie,-41.07,145.92,283.71,86,38,0.45,AU,1604081775
moose factory,51.26,-80.61,271.15,58,1,4.6,CA,1604081776
hailar,49.2,119.7,273.55,89,100,4.11,CN,1604081776
ust-tsilma,65.44,52.15,279.57,91,100,3.56,RU,1604081776
milkovo,54.72,158.62,271.92,97,66,0.44,RU,1604081777
maniitsoq,65.42,-52.9,268.36,88,90,1.65,GL,1604081659
pizhma,57.86,47.12,273.75,95,36,2.26,RU,1604081777
atikokan,48.76,-91.62,273.83,88,0,2.99,CA,1604081777
rancho palos verdes,33.74,-118.39,296.48,60,5,0.59,US,1604081778
havre-saint-pierre,50.23,-63.6,275.15,40,90,6.2,CA,1604081659
vyartsilya,62.18,30.69,278.67,90,58,1.91,RU,1604081778
coahuayana,18.73,-103.68,299.15,78,75,1.58,MX,1604081779
apatou,5.16,-54.35,310.96,31,13,2.5,GF,1604081779
culfa,38.96,45.63,290.15,39,20,2.1,AZ,1604081779
alghero,40.56,8.32,288.15,93,20,1.5,IT,1604081521
kouqian,43.64,126.46,275.5,75,92,2.9,CN,1604081780
kirakira,-10.45,161.92,298.36,73,100,0.79,SB,1604081780
thohoyandou,-22.95,30.48,298.46,27,0,2.83,ZA,1604081780
lazaro cardenas,17.96,-102.2,304.52,57,57,0.63,MX,1604081781
teguise,29.06,-13.56,300.15,24,0,5.1,ES,1604081781
boda,4.32,17.47,295.62,94,74,0.96,CF,1604081575
nshamba,-1.8,31.55,295.15,78,75,1.64,TZ,1604081782
heidenheim,48.68,10.15,283.15,84,86,3.15,DE,1604081782
chara,56.91,118.26,261.34,80,42,0.4,RU,1604081782
kiunga,-6.12,141.29,295.4,98,92,0.27,PG,1604081666
college,64.86,-147.8,262.04,85,90,1.5,US,1604081666
keti bandar,24.14,67.45,299.75,60,0,3.11,PK,1604081784
inongo,-1.95,18.27,296.66,85,28,1.21,CD,1604081784
quatre cocos,-20.21,57.76,294.15,52,40,6.2,MU,1604081753
san quintin,30.48,-115.95,296.49,35,82,2.12,MX,1604081785
acolla,-11.73,-75.55,290.07,41,100,3.45,PE,1604081786
conceicao da barra,-18.59,-39.73,300.61,67,47,6.78,BR,1604081786
wanning,18.8,110.4,297.77,88,77,6.64,CN,1604081526
constantine,36.37,6.61,288.15,58,0,1.0,DZ,1604081788
santa lucia,27.91,-15.54,298.15,73,0,5.1,ES,1604081788
shieli,44.17,66.75,281.47,49,0,4.36,KZ,1604081789
katangli,51.71,143.23,273.04,95,18,2.41,RU,1604081789
vanimo,-2.67,141.3,298.24,81,99,2.07,PG,1604081669
lukulu,-14.37,23.24,300.95,32,64,1.96,ZM,1604081790
mujiayingzi,42.12,118.78,280.7,56,100,4.6,CN,1604081790
marawi,8.0,124.29,296.48,96,94,2.24,PH,1604081790
broome,42.25,-75.83,277.59,80,90,5.7,US,1604081790
nauta,-4.51,-73.58,301.09,91,97,1.58,PE,1604081790
ancud,-41.87,-73.82,290.37,59,0,3.6,CL,1604081791
fairview,40.81,-74.0,279.15,86,75,2.6,US,1604081592
stavropol,45.04,41.97,289.15,63,0,3.0,RU,1604081547
yelatma,54.97,41.75,278.28,89,100,1.8,RU,1604081791
basco,20.45,121.97,298.56,79,83,15.42,PH,1604081792
vallenar,-28.57,-70.76,301.62,21,0,4.61,CL,1604081792
werda,-25.27,23.28,303.93,19,96,0.56,BW,1604081792
grand gaube,-20.01,57.66,292.59,62,0,1.34,MU,1604081792
muravlenko,63.79,74.52,272.42,99,100,3.77,RU,1604081793
saldus,56.66,22.49,282.04,92,100,1.79,LV,1604081793
halifax,44.65,-63.57,277.15,55,90,7.7,CA,1604081629
margate,51.38,1.39,288.15,88,85,2.24,GB,1604081794
san juan,-31.54,-68.54,298.21,18,0,2.03,AR,1604081794
wamba,8.93,8.6,298.87,53,66,0.39,NG,1604081794
biskamzha,53.45,89.53,271.33,95,100,6.39,RU,1604081795
zhigansk,66.77,123.37,246.96,89,82,0.68,RU,1604081795
asau,46.43,26.4,279.82,97,100,0.36,RO,1604081766
atambua,-9.11,124.89,297.22,80,50,1.64,ID,1604081796
aloleng,16.13,119.78,300.21,79,61,1.89,PH,1604081796
bodden town,19.28,-81.25,303.15,74,40,2.1,KY,1604081796
diedorf,48.35,10.77,285.15,81,20,2.6,DE,1604081797
koumac,-20.57,164.28,296.78,81,33,1.96,NC,1604081797
talnakh,69.49,88.4,262.15,72,100,10.0,RU,1604081522
iisalmi,63.56,27.19,275.15,93,0,1.5,FI,1604081798
srivardhan,18.03,73.02,298.73,69,3,2.28,IN,1604081798
severo-kurilsk,50.68,156.12,278.72,89,93,12.8,RU,1604081652
inirida,3.87,-67.92,309.73,43,34,0.99,CO,1604081799
santa cruz del sur,20.71,-78.0,303.21,66,0,3.31,CU,1604081799
kupang,-10.17,123.58,299.75,77,75,2.63,ID,1604081800
linxia,35.6,103.21,275.51,79,84,1.52,CN,1604081800
cabinda,-5.55,12.2,298.59,83,66,4.76,AO,1604081801
gravdal,68.12,13.5,276.15,55,0,6.2,NO,1604081802
olinda,-8.01,-34.86,303.15,66,75,5.1,BR,1604081589
sakakah,29.97,40.21,298.15,9,0,3.1,SA,1604081803
padang,-0.95,100.35,298.85,79,100,1.43,ID,1604081664
sarkand,45.41,79.92,276.95,65,27,0.87,KZ,1604081804
tessalit,20.2,1.01,301.76,14,6,3.06,ML,1604081804
ibra,22.69,58.53,291.57,58,0,0.57,OM,1604081804
new port richey,28.24,-82.72,296.48,63,0,0.89,US,1604081805
teknaf,20.86,92.31,299.01,83,88,2.25,BD,1604081805
xuchang,34.02,113.82,288.15,67,100,1.0,CN,1604081805
kroonstad,-27.65,27.23,298.38,24,88,1.55,ZA,1604081805
kulhudhuffushi,6.62,73.07,301.18,74,73,3.92,MV,1604081806
dwarka,22.24,68.97,301.43,48,0,3.63,IN,1604081806
santa fe,-31.63,-60.7,294.82,32,99,1.79,AR,1604081807
loreto,22.27,-101.97,294.38,29,0,5.54,MX,1604081704
bulgan,48.81,103.53,270.0,74,10,2.21,MN,1604081807
zielona gora,51.94,15.51,286.15,93,90,5.1,PL,1604081564
cayenne,4.93,-52.33,305.15,62,20,5.7,GF,1604081808
rocha,-34.48,-54.33,288.42,59,6,5.09,UY,1604081808
general pico,-35.66,-63.76,295.02,26,0,3.96,AR,1604081586
poya,-21.35,165.15,296.02,82,34,2.51,NC,1604081809
eldorado,-23.79,-54.28,297.52,66,72,3.64,BR,1604081809
kampot,10.62,104.18,298.15,94,20,0.5,KH,1604081809
hobyo,5.35,48.53,300.67,77,10,5.5,SO,1604081810
plastun,44.76,136.29,274.85,86,47,2.22,RU,1604081810
graaff-reinet,-32.25,24.53,286.48,65,62,3.13,ZA,1604081810
richards bay,-28.78,32.04,293.94,82,87,7.61,ZA,1604081639
henties bay,-22.12,14.28,287.59,82,18,4.1,NA,1604081649
jais,26.25,81.53,294.88,31,0,2.84,IN,1604081811
zhangjiakou,40.81,114.88,280.5,67,94,0.87,CN,1604081812
reichenau,50.91,14.96,285.37,93,100,1.79,PL,1604081812
russellville,35.28,-93.13,288.15,54,1,1.5,US,1604081718
east wenatchee bench,47.43,-120.28,288.71,58,1,8.09,US,1604081813
ler,8.3,30.14,297.31,85,100,1.07,SS,1604081813
jalu,29.03,21.55,294.43,52,0,4.2,LY,1604081813
edd,13.93,41.69,303.45,51,0,6.39,ER,1604081667
progreso,21.28,-89.67,298.71,94,90,3.6,MX,1604081813
sillod,20.3,75.65,294.26,56,0,1.66,IN,1604081814
tigil,57.8,158.67,272.79,99,100,1.41,RU,1604081814
fenoarivo atsinanana,-17.37,49.42,294.52,75,73,5.13,MG,1604081815
mnogovershinnyy,53.94,139.92,271.53,96,98,1.1,RU,1604081815
cabo rojo,18.09,-67.15,304.26,70,99,3.58,PR,1604081770
sao jose da coroa grande,-8.9,-35.15,300.82,71,75,5.02,BR,1604081652
itamaraju,-17.04,-39.53,302.15,59,80,5.0,BR,1604081817
russell,32.35,-85.2,290.93,55,1,5.7,US,1604081604
ayan,56.45,138.17,270.77,87,100,1.98,RU,1604081818
kerouane,9.27,-9.02,298.76,59,39,1.25,GN,1604081818
beringovskiy,63.05,179.32,269.43,82,1,2.97,RU,1604081529
pangnirtung,66.15,-65.71,262.15,66,20,1.5,CA,1604081819
cap malheureux,-19.98,57.61,292.59,62,0,1.34,MU,1604081820
kyabram,-36.32,145.05,284.15,93,50,4.03,AU,1604081820
tsabong,-26.02,22.4,302.26,23,74,2.76,BW,1604081820
ponta delgada,37.73,-25.67,294.15,88,75,7.7,PT,1604081821
rosetta,31.4,30.42,297.15,60,40,3.6,EG,1604081821
jose bonifacio,-21.05,-49.69,299.15,61,75,6.7,BR,1604081589
soyo,-6.13,12.37,298.66,84,36,3.87,AO,1604081822
kon tum,14.35,108.0,293.92,89,17,0.87,VN,1604081573
emmett,43.87,-116.5,286.15,37,1,4.75,US,1604081822
vardo,70.37,31.11,273.15,85,75,8.2,NO,1604081542
ormara,25.21,64.64,298.61,59,0,4.53,PK,1604081823
saquena,-4.67,-73.52,301.7,89,100,0.86,PE,1604081657
la ronge,55.1,-105.28,269.15,68,100,6.7,CA,1604081823
sinalunga,43.22,11.75,285.93,84,3,0.79,IT,1604081823
sivaki,52.63,126.75,269.71,97,100,1.5,RU,1604081824
port blair,11.67,92.75,300.18,84,90,4.64,IN,1604081824
tremedal,-14.98,-41.41,301.48,55,100,3.89,BR,1604081824
chapais,49.78,-74.85,265.15,85,90,2.1,CA,1604081824
emiliano zapata,18.83,-99.18,298.15,50,75,2.18,MX,1604081825
manali,13.17,80.27,299.15,94,40,2.15,IN,1604081825
ville-marie,47.33,-79.43,270.15,53,1,2.6,CA,1604081825
shubarkuduk,49.14,56.49,281.17,50,98,6.61,KZ,1604081825
irricana,51.32,-113.6,286.15,35,40,9.3,CA,1604081826
bartica,6.4,-58.62,305.15,66,75,7.2,GY,1604081826
kieta,-6.22,155.63,298.14,82,100,1.4,PG,1604081826
ismailia,30.6,32.27,295.4,68,1,4.01,EG,1604081588
wattegama,6.8,81.48,297.72,89,71,1.29,LK,1604081827
mackay,-21.15,149.2,297.15,83,3,4.6,AU,1604081686
lufilufi,-13.87,-171.6,297.15,94,75,0.94,WS,1604081827
altus,34.64,-99.33,289.15,44,1,3.1,US,1604081696
batagay-alyta,67.8,130.41,257.8,93,100,0.8,RU,1604081828
bereda,43.27,-7.54,285.93,89,0,1.34,ES,1604081828
erzin,36.96,36.2,297.04,59,100,1.22,TR,1604081552
lac-megantic,45.58,-70.88,274.82,55,99,1.34,CA,1604081828
dunedin,-45.87,170.5,289.26,67,100,3.58,NZ,1604081829
ushumun,52.78,126.53,269.51,97,100,1.98,RU,1604081829
bani walid,31.76,13.99,291.94,67,61,5.86,LY,1604081830
terenos,-20.44,-54.86,296.15,78,75,4.1,BR,1604081831
yarada,17.65,83.27,298.15,83,83,1.0,IN,1604081831
valmiera,57.54,25.43,280.93,97,97,1.31,LV,1604081832
palana,59.12,159.97,272.09,98,95,3.25,RU,1604081833
dubai,25.26,55.3,301.15,58,0,2.6,AE,1604081833
mackenzie,55.3,-123.17,272.15,92,90,4.6,CA,1604081834
waddan,29.16,16.14,291.96,47,57,3.78,LY,1604081834
springfield,37.22,-93.3,285.93,54,1,2.1,US,1604081593
trairi,-3.28,-39.27,302.87,58,26,6.8,BR,1604081835
davila,18.47,120.58,299.66,80,9,11.24,PH,1604081835
tiznit,29.58,-9.5,298.2,20,0,4.0,MA,1604081835
changji,44.02,87.32,276.15,69,0,1.0,CN,1604081835
zyryanka,65.75,150.85,257.23,94,62,0.33,RU,1604081836
warner robins,32.62,-83.6,292.59,52,1,6.7,US,1604081576
monforte de lemos,42.52,-7.51,285.37,78,0,1.23,ES,1604081837
sandusky,41.35,-83.13,279.82,66,95,2.24,US,1604081789
kinablangan,7.69,126.55,299.18,82,62,2.44,PH,1604081837
matagami,49.75,-77.63,267.15,67,1,2.6,CA,1604081838
slangerup,55.85,12.18,282.59,96,99,2.24,DK,1604081838
manyana,-23.4,21.72,301.06,30,36,2.92,BW,1604081839
paranavai,-23.07,-52.47,293.94,77,100,5.53,BR,1604081839
suoyarvi,62.08,32.35,278.67,89,94,2.1,RU,1604081839
hofn,64.25,-15.21,276.15,93,90,2.6,IS,1604081662
ekhabi,53.51,142.97,273.3,93,84,2.36,RU,1604081840
alice springs,-23.7,133.88,287.15,28,51,2.6,AU,1604081653
lakatoro,-16.1,167.42,299.07,82,53,5.32,VU,1604081841
alta floresta,-9.88,-56.09,300.15,83,75,2.1,BR,1604081841
reutte,47.48,10.72,281.48,91,60,1.98,AT,1604081841
gobabis,-22.45,18.97,298.99,36,90,5.03,NA,1604081841
veere,51.55,3.67,288.15,82,87,10.3,NL,1604081841
praia da vitoria,38.73,-27.07,294.15,88,75,9.0,PT,1604081680
cuenca,-2.88,-78.98,293.15,45,90,3.6,EC,1604081633
little current,45.98,-81.92,273.71,46,16,2.6,CA,1604081842
aswan,24.09,32.91,302.44,14,0,3.81,EG,1604081749
port-gentil,-0.72,8.78,301.15,78,40,4.6,GA,1604081668
yurty,56.05,97.63,271.41,98,100,1.55,RU,1604081843
