City,Lat,Lng,Max_Temp,Humidity,Cloudiness,Wind Speed,Country,Date
puerto ayora,-0.74,-90.35,70.0,90,86,4.0,EC,1604204687
hilo,19.73,-155.09,82.4,65,90,5.82,US,1604204565
new norfolk,-42.78,147.06,62.01,52,95,1.01,AU,1604204688
catamarca,-28.47,-65.79,48.99,66,4,1.01,AR,1604204442
avarua,-21.21,-159.78,75.2,83,100,10.29,CK,1604204688
punta arenas,-53.15,-70.92,44.6,87,0,9.17,CL,1604204688
coquimbo,-29.95,-71.34,53.6,87,7,4.7,CL,1604204597
saint-philippe,-21.36,55.77,72.0,64,90,8.05,RE,1604204650
yellowknife,62.46,-114.35,23.0,92,90,12.75,CA,1604204521
port alfred,-33.59,26.89,62.53,80,37,12.73,ZA,1604204397
atuona,-9.8,-139.03,78.62,73,5,18.14,PF,1604204690
nanortalik,60.14,-45.24,29.1,90,55,23.24,GL,1604204690
warragul,-38.17,145.93,73.99,57,0,1.99,AU,1604204429
saldanha,-33.01,17.94,55.4,50,0,5.82,ZA,1604204676
lagunas,-5.23,-75.68,72.32,83,79,5.26,PE,1604204695
vaini,-21.2,-175.2,77.0,78,75,13.87,TO,1604204695
hamilton,39.18,-84.53,51.01,66,40,8.05,US,1604204540
jamestown,42.1,-79.24,39.0,74,1,11.41,US,1604204437
tasiilaq,65.61,-37.64,32.0,96,100,2.24,GL,1604204696
lebu,-37.62,-73.65,51.08,89,25,5.08,CL,1604204696
airai,-8.93,125.41,79.66,40,2,2.86,TL,1604204697
saskylakh,71.92,114.08,-6.63,86,36,8.19,RU,1604204697
ciudad guayana,8.35,-62.65,80.01,86,100,1.99,VE,1604204697
bathsheba,13.22,-59.52,82.4,78,40,14.99,BB,1604204697
buin,-33.73,-70.75,63.0,76,0,8.05,CL,1604204698
codrington,-38.27,141.97,61.3,74,43,10.42,AU,1604204698
ilulissat,69.22,-51.1,19.4,73,100,13.87,GL,1604204698
albany,42.6,-73.97,34.0,86,0,5.01,US,1604204438
kapaa,22.08,-159.32,78.8,74,75,10.29,US,1604204699
esperance,-33.87,121.9,77.0,57,91,13.87,AU,1604204699
kaitangata,-46.28,169.85,54.0,77,94,17.0,NZ,1604204699
chernaya kholunitsa,58.85,51.72,29.12,94,87,3.13,RU,1604204700
faanui,-16.48,-151.75,79.47,78,1,18.45,PF,1604204700
leningradskiy,69.38,178.42,14.59,87,27,6.64,RU,1604204700
omsukchan,62.53,155.8,20.05,95,100,6.4,RU,1604204700
chadiza,-14.07,32.44,61.77,85,2,4.65,ZM,1604204701
port elizabeth,-33.92,25.57,62.6,88,0,5.82,ZA,1604204593
talnakh,69.49,88.4,21.2,85,90,29.08,RU,1604204701
lagoa,39.05,-27.98,68.65,92,80,29.33,PT,1604204702
bubaque,11.28,-15.83,83.32,69,28,9.13,GW,1604204702
carnarvon,-24.87,113.63,77.0,57,76,17.22,AU,1604204702
longyearbyen,78.22,15.64,21.2,73,20,12.75,SJ,1604204653
bella vista,36.43,-94.23,48.2,76,1,3.36,US,1604204703
bredasdorp,-34.53,20.04,46.4,93,35,3.36,ZA,1604204703
gold coast,-28.0,153.43,84.99,44,0,12.75,AU,1604204557
hobart,-42.88,147.33,63.0,67,75,9.17,AU,1604204515
bluff,-46.6,168.33,51.01,91,99,14.0,NZ,1604204704
antofagasta,-23.65,-70.4,59.0,82,90,6.93,CL,1604204562
adrar,20.5,-10.07,76.24,19,54,8.88,MR,1604204705
douglas,41.3,-96.17,50.0,36,1,23.04,US,1604204705
constitucion,-35.33,-72.42,53.44,85,3,2.93,CL,1604204706
emerald,-23.53,148.17,91.99,16,0,11.41,AU,1604204707
saint anthony,45.02,-93.22,37.99,47,90,21.92,US,1604204707
jacareacanga,-6.22,-57.75,78.48,77,89,2.26,BR,1604204708
camana,-16.62,-72.71,64.54,77,57,7.29,PE,1604204709
dikson,73.51,80.55,21.09,98,100,8.59,RU,1604204709
cidreira,-30.18,-50.21,61.3,75,26,5.46,BR,1604204508
castro,-24.79,-50.01,52.65,91,62,8.14,BR,1604204709
victoria,22.29,114.16,78.01,68,5,1.01,HK,1604204458
oyama,36.3,139.8,72.0,45,75,3.36,JP,1604204710
mount gambier,-37.83,140.77,69.8,52,0,6.93,AU,1604204710
ushuaia,-54.8,-68.3,46.4,93,0,4.7,AR,1604204710
mataura,-46.19,168.86,51.01,91,100,14.0,NZ,1604204645
cape town,-33.93,18.42,59.0,62,0,12.75,ZA,1604204533
busselton,-33.65,115.33,55.99,86,100,10.13,AU,1604204711
hermanus,-34.42,19.23,59.0,78,8,7.0,ZA,1604204711
maningrida,-12.07,134.27,93.02,40,25,13.11,AU,1604204712
denizli,37.84,29.07,35.6,64,44,1.34,TR,1604204712
palafrugell,41.92,3.16,57.99,43,2,1.25,ES,1604204712
hirara,24.8,125.28,80.6,65,40,18.34,JP,1604204712
khandyga,62.67,135.6,-1.35,83,4,1.12,RU,1604204712
rio grande,-32.03,-52.1,51.01,95,0,8.01,BR,1604204713
nantucket,41.28,-70.1,46.99,61,90,12.75,US,1604204713
thompson,55.74,-97.86,5.0,84,5,4.92,CA,1604204713
rikitea,-23.12,-134.97,75.9,72,0,9.44,PF,1604204714
ostrovnoy,68.05,39.51,28.08,94,75,21.05,RU,1604204714
broken hill,-31.95,141.43,75.2,36,40,8.05,AU,1604204648
valentin gomez farias,28.22,-106.58,62.01,33,96,1.01,MX,1604204715
lavrentiya,65.58,-171.0,22.26,90,0,8.12,RU,1604204715
mineral wells,32.81,-98.11,57.99,66,1,8.05,US,1604204715
kahului,20.89,-156.47,82.4,65,40,10.29,US,1604204618
georgetown,5.41,100.34,86.0,74,20,3.36,MY,1604204716
byron bay,-28.65,153.62,84.0,50,40,14.99,AU,1604204716
upernavik,72.79,-56.15,16.02,95,99,11.32,GL,1604204717
olafsvik,64.89,-23.71,41.77,78,86,10.56,IS,1604204717
ahipara,-35.17,173.17,69.35,65,0,4.61,NZ,1604204665
atar,20.52,-13.05,80.51,17,100,9.4,MR,1604204718
nemuro,43.32,145.57,51.8,71,75,10.29,JP,1604204718
pahrump,36.21,-115.98,60.01,22,27,1.01,US,1604204718
ondangwa,-17.92,15.95,71.6,73,66,6.93,NA,1604204718
sembe,1.65,14.58,69.96,95,100,1.16,CG,1604204719
muncar,-8.43,114.33,87.89,55,23,5.93,ID,1604204719
makat,47.65,53.35,45.66,58,17,12.39,KZ,1604204719
port lincoln,-34.73,135.87,63.9,66,2,12.15,AU,1604204720
centralia,46.72,-122.95,46.4,81,1,4.83,US,1604204721
crestview,30.76,-86.57,62.6,82,75,3.36,US,1604204722
sao joao da barra,-21.64,-41.05,70.23,87,100,14.5,BR,1604204726
mayumba,-3.43,10.66,77.0,90,100,4.32,GA,1604204726
xixiang,35.16,112.86,66.96,24,85,8.9,CN,1604204726
butaritari,3.07,172.79,81.64,76,100,11.43,KI,1604204653
iaciara,-14.1,-46.63,68.02,96,100,1.83,BR,1604204728
limon,10.0,-83.03,79.59,79,100,10.69,CR,1604204728
yagodnoye,62.55,149.67,9.16,92,86,1.43,RU,1604204728
mnogovershinnyy,53.94,139.92,34.81,98,100,4.25,RU,1604204728
chokurdakh,70.63,147.92,-9.04,92,97,9.78,RU,1604204729
ust-nera,64.57,143.2,-5.06,82,14,4.27,RU,1604204729
qaanaaq,77.48,-69.36,5.02,81,0,4.79,GL,1604204729
lucapa,-8.42,20.74,63.32,97,48,1.81,AO,1604204729
baykit,61.67,96.37,8.19,90,74,4.54,RU,1604204730
pevek,69.7,170.31,15.82,93,83,12.95,RU,1604204730
mantua,45.17,10.78,53.01,98,32,1.01,IT,1604204730
susanville,40.42,-120.65,46.99,51,1,3.36,US,1604204605
vila velha,-20.33,-40.29,69.8,94,90,6.93,BR,1604204697
zhangye,38.93,100.45,46.58,44,28,3.91,CN,1604204731
hay river,60.82,-115.8,28.4,86,100,2.24,CA,1604204731
majene,-3.54,118.97,84.52,62,100,2.93,ID,1604204732
mayo,38.89,-76.51,51.01,81,90,13.87,US,1604204732
husavik,66.04,-17.34,39.2,86,90,6.93,IS,1604204732
bermejo,-32.88,-68.8,69.8,22,0,3.42,AR,1604204732
tuatapere,-46.13,167.68,51.01,91,94,14.0,NZ,1604204690
tiksi,71.69,128.87,-4.29,90,54,8.14,RU,1604204733
riviere-au-renard,49.0,-64.4,23.0,67,5,6.82,CA,1604204733
padang,-0.95,100.35,80.38,76,100,2.93,ID,1604204734
ribeira grande,38.52,-28.7,69.17,92,68,24.52,PT,1604204734
dalbandin,28.89,64.41,61.47,24,0,7.2,PK,1604204734
bautzen,51.18,14.43,53.01,91,100,11.01,DE,1604204735
hithadhoo,-0.6,73.08,83.14,73,100,10.02,MV,1604204663
east london,-33.02,27.91,62.6,77,20,5.82,ZA,1604204736
paamiut,61.99,-49.67,24.31,96,100,9.04,GL,1604204737
katsuura,35.13,140.3,70.0,63,75,4.7,JP,1604204739
palmares do sul,-30.26,-50.51,59.47,80,24,4.43,BR,1604204739
mahebourg,-20.41,57.7,73.4,60,40,16.11,MU,1604204739
oktyabrskiy,54.48,53.47,39.72,90,100,3.65,RU,1604204740
sitka,57.05,-135.33,46.4,93,90,4.7,US,1604204678
mezen,65.85,44.24,30.04,95,91,8.59,RU,1604204740
bouna,9.27,-3.0,74.05,72,35,3.11,CI,1604204741
nouadhibou,20.93,-17.03,68.0,77,0,9.17,MR,1604204741
kruisfontein,-34.0,24.73,57.99,95,0,2.48,ZA,1604204741
parker,32.77,-97.8,57.99,73,69,5.84,US,1604204742
guarapari,-20.67,-40.5,69.8,94,90,6.93,BR,1604204742
gashua,12.87,11.05,74.68,23,42,9.28,NG,1604204743
waddan,29.16,16.14,57.22,88,0,5.97,LY,1604204743
mitsamiouli,-11.38,43.28,77.67,77,81,9.22,KM,1604204743
saint george,37.1,-113.58,59.0,18,1,3.44,US,1604204743
katherine,-14.47,132.27,102.2,14,25,14.99,AU,1604204744
nhulunbuy,-12.23,136.77,93.2,38,0,11.41,AU,1604204717
jackson,42.42,-122.83,60.8,44,1,2.53,US,1604204744
prince rupert,54.32,-130.32,50.0,87,90,23.04,CA,1604204744
mundybash,53.21,87.3,32.67,94,85,2.06,RU,1604204745
bengkulu,-3.8,102.27,84.58,64,95,4.97,ID,1604204745
port hedland,-20.32,118.57,89.6,55,0,19.46,AU,1604204745
bilma,18.69,12.92,66.45,40,0,14.05,NE,1604204746
bhachau,23.28,70.35,83.95,25,0,4.56,IN,1604204746
luau,-10.71,22.22,64.2,80,57,2.59,AO,1604204746
sabang,5.89,95.32,82.85,74,93,8.88,ID,1604204746
san jeronimo,-11.95,-75.28,47.62,73,71,0.96,PE,1604204747
uyo,5.03,7.93,73.8,95,98,1.36,NG,1604204699
betare oya,5.6,14.08,66.07,93,98,1.63,CM,1604204747
sandwick,60.0,-1.25,50.0,71,73,26.4,GB,1604204748
faya,18.39,42.45,59.0,35,0,2.44,SA,1604204707
flinders,-34.58,150.86,62.01,86,99,8.99,AU,1604204748
omboue,-1.57,9.26,76.08,91,98,4.18,GA,1604204748
zlobin,45.29,14.65,52.0,93,0,3.74,HR,1604204749
lucea,18.45,-78.17,81.0,83,40,4.7,JM,1604204749
pemba,-12.97,40.52,75.2,94,20,5.82,MZ,1604204750
moranbah,-22.0,148.05,92.34,11,0,2.44,AU,1604204750
zhigansk,66.77,123.37,1.26,93,98,9.08,RU,1604204751
kodiak,57.79,-152.41,32.0,84,1,4.7,US,1604204751
tuktoyaktuk,69.45,-133.04,-4.0,83,20,4.7,CA,1604204753
pervomayskoye,43.92,46.71,59.43,86,100,7.56,RU,1604204753
angoram,-4.06,144.07,87.28,72,56,5.97,PG,1604204754
poum,-20.23,164.02,78.69,76,16,15.08,NC,1604204754
chuy,-33.7,-53.46,50.77,87,0,0.31,UY,1604204754
bambous virieux,-20.34,57.76,77.0,60,40,16.11,MU,1604204651
stolin,51.89,26.85,41.18,97,64,6.8,BY,1604204755
datong,40.09,113.29,47.26,44,0,13.87,CN,1604204755
torbat-e jam,35.24,60.62,62.15,21,0,1.25,IR,1604204755
bonfim,3.08,-59.95,81.73,63,66,1.92,BR,1604204755
dingle,11.0,122.67,82.49,82,100,14.27,PH,1604204672
mehamn,71.04,27.85,36.95,80,0,13.24,NO,1604204756
guerrero negro,27.98,-114.06,68.29,69,51,9.84,MX,1604204756
sinnamary,5.38,-52.95,79.5,86,92,9.1,GF,1604204756
the valley,18.22,-63.06,82.4,74,20,13.87,AI,1604204757
alofi,-19.06,-169.92,77.0,88,44,17.22,NU,1604204625
saint-francois,46.42,3.91,53.6,81,90,8.05,FR,1604204757
caravelas,-17.71,-39.25,73.11,96,100,6.08,BR,1604204757
khatanga,71.97,102.5,-1.59,88,80,9.98,RU,1604204757
kidal,18.44,1.41,74.79,21,3,14.5,ML,1604204758
bara,10.37,10.73,73.76,28,44,6.35,NG,1604204758
provideniya,64.38,-173.3,22.57,88,0,5.75,RU,1604204758
maamba,-17.37,27.15,71.46,56,0,6.85,ZM,1604204758
fort nelson,58.81,-122.7,21.2,92,75,2.24,CA,1604204581
san policarpo,12.18,125.51,86.0,72,100,10.07,PH,1604204759
nishihara,26.18,127.76,82.4,39,20,17.22,JP,1604204759
saint-paul,-21.01,55.27,75.2,50,0,3.36,RE,1604204760
bom jardim,-7.8,-35.59,71.6,94,75,10.29,BR,1604204760
kalabo,-14.97,22.68,72.82,34,83,4.9,ZM,1604204760
evensk,61.95,159.23,24.62,95,100,10.07,RU,1604204760
astoria,46.19,-123.83,51.01,76,1,10.29,US,1604204761
yavaros,26.7,-109.52,77.0,51,100,7.63,MX,1604204761
areosa,41.72,-8.86,64.0,93,90,11.41,PT,1604204761
muzhi,65.37,64.67,34.5,89,63,17.31,RU,1604204469
taos,36.41,-105.57,43.0,59,1,4.7,US,1604204673
mount isa,-20.73,139.5,96.8,11,15,12.75,AU,1604204762
russell,32.35,-85.2,60.8,72,90,3.36,US,1604204763
sobolevo,54.43,31.9,40.91,92,95,12.3,RU,1604204763
tabory,58.52,64.55,34.0,96,100,10.27,RU,1604204763
birao,10.28,22.79,73.2,58,0,2.93,CF,1604204764
klaksvik,62.23,-6.59,44.6,87,95,19.46,FO,1604204764
surt,31.21,16.59,69.66,62,44,10.45,LY,1604204765
coahuayana,18.73,-103.68,77.11,84,36,1.9,MX,1604204765
pisco,-13.7,-76.22,62.6,88,75,2.24,PE,1604204767
pundaguitan,6.37,126.17,84.36,73,90,16.15,PH,1604204767
ust-ilimsk,58.0,102.66,15.53,85,8,3.02,RU,1604204769
finschhafen,-6.6,147.87,84.45,68,83,6.78,PG,1604204769
yar-sale,66.83,70.83,26.47,97,21,11.74,RU,1604204769
torbay,47.67,-52.73,32.0,68,40,13.87,CA,1604204770
pampierstad,-27.78,24.69,62.22,81,58,4.83,ZA,1604204770
richards bay,-28.78,32.04,64.74,83,100,4.94,ZA,1604204770
nelson bay,-32.72,152.15,69.01,77,75,20.8,AU,1604204771
kaeo,-35.1,173.78,79.0,54,5,3.0,NZ,1604204771
port hardy,50.7,-127.42,50.0,87,90,9.17,CA,1604204771
kargopol,61.51,38.95,27.86,96,1,2.95,RU,1604204771
marawi,8.0,124.29,88.0,63,100,10.0,PH,1604204772
lompoc,34.64,-120.46,59.0,87,1,4.7,US,1604204651
kamphaeng phet,16.25,99.5,83.52,75,8,1.39,TH,1604204772
ponta do sol,32.67,-17.1,71.01,45,20,5.82,PT,1604204772
naryan-mar,67.67,53.09,33.76,90,97,11.65,RU,1604204702
belaya gora,68.53,146.42,-4.54,90,86,4.54,RU,1604204773
shingu,33.73,135.98,73.4,49,75,13.87,JP,1604204773
umuarama,-23.77,-53.33,65.55,80,72,7.72,BR,1604204773
giyani,-23.3,30.72,64.98,86,100,9.57,ZA,1604204773
barrow,71.29,-156.79,24.8,58,90,10.29,US,1604204644
savannah bight,16.45,-85.85,82.49,75,100,8.39,HN,1604204774
saint-augustin,51.23,-58.65,28.26,81,5,10.13,CA,1604204774
sorong,-0.88,131.25,84.34,78,43,12.57,ID,1604204774
avera,33.19,-82.53,59.0,77,90,4.7,US,1604204775
hualmay,-11.1,-77.61,60.76,87,81,6.04,PE,1604204775
hasaki,35.73,140.83,72.0,55,40,6.93,JP,1604204775
serebryansk,49.69,83.29,33.8,94,2,2.24,KZ,1604204775
walla walla,46.06,-118.34,43.0,70,1,4.7,US,1604204776
mahibadhoo,3.78,72.97,82.6,68,98,4.03,MV,1604204776
yarada,17.65,83.27,87.8,52,9,4.7,IN,1604204777
malangwa,26.86,85.56,80.92,54,57,2.44,NP,1604204777
norman wells,65.28,-126.83,-2.2,84,75,5.82,CA,1604204777
puerto baquerizo moreno,-0.9,-89.6,68.67,90,93,9.35,EC,1604204777
vardo,70.37,31.11,37.83,83,56,18.52,NO,1604204734
bolotnoye,55.67,84.4,33.91,92,100,15.77,RU,1604204778
cuiluan,47.72,128.65,39.31,69,96,15.77,CN,1604204778
slave lake,55.28,-114.77,33.8,74,90,2.24,CA,1604204778
mainit,9.54,125.52,84.0,69,100,5.95,PH,1604204778
leshukonskoye,64.9,45.76,28.4,96,54,5.41,RU,1604204779
mareeba,-17.0,145.43,93.0,42,0,10.0,AU,1604204779
rocha,-34.48,-54.33,46.62,91,0,2.57,UY,1604204683
manica,49.0,-1.17,55.4,82,90,14.99,FR,1604204780
souillac,-20.52,57.52,73.4,60,40,16.11,MU,1604204781
tabou,4.42,-7.35,77.16,88,38,5.97,CI,1604204781
castlemaine,-37.07,144.22,79.0,35,0,3.0,AU,1604204567
bjornevatn,69.67,29.98,32.0,98,90,12.75,NO,1604204783
cam ranh,11.92,109.16,87.8,70,20,20.8,VN,1604204783
seymchan,62.88,152.43,13.59,94,97,6.04,RU,1604204784
batticaloa,7.71,81.69,83.7,69,22,8.03,LK,1604204784
kingman,35.19,-114.05,64.0,20,1,9.17,US,1604204784
fuxin,42.02,121.66,51.73,36,0,15.88,CN,1604204784
kuching,1.55,110.33,89.6,62,40,8.05,MY,1604204785
zima,53.92,102.04,19.53,79,0,5.32,RU,1604204556
mende,44.67,3.5,44.62,80,89,1.25,FR,1604204785
iqaluit,63.75,-68.51,6.8,77,75,5.82,CA,1604204785
naze,28.37,129.48,80.6,65,75,12.75,JP,1604204785
mbuguni,-3.57,36.95,66.2,88,75,5.28,TZ,1604204786
alice town,25.72,-79.3,81.45,81,13,19.06,BS,1604204786
ratnagiri,16.98,73.3,83.64,59,0,3.38,IN,1604204786
axim,4.87,-2.24,77.52,86,99,3.24,GH,1604204787
gewane,10.17,40.65,76.44,57,0,7.29,ET,1604204787
shimoda,34.67,138.95,64.4,63,75,8.05,JP,1604204787
salalah,17.02,54.09,77.0,31,0,4.7,OM,1604204720
bhopal,23.27,77.4,75.2,38,0,5.82,IN,1604204788
san cristobal,7.77,-72.22,66.97,88,100,1.66,VE,1604204788
staroye drozhzhanoye,54.73,47.57,39.0,93,97,10.67,RU,1604204788
sao miguel do araguaia,-13.28,-50.16,70.61,97,100,2.75,BR,1604204788
mao,39.89,4.27,59.0,93,0,5.82,ES,1604204789
visby,57.64,18.3,50.0,87,48,10.29,SE,1604204789
arraial do cabo,-22.97,-42.03,70.63,79,46,14.34,BR,1604204629
andenes,69.31,16.12,42.8,70,100,17.22,NO,1604204789
nato,13.61,123.54,75.7,86,100,12.15,PH,1604204790
tahoua,14.89,5.27,71.6,28,0,6.93,NE,1604204790
rozkishne,48.51,39.3,52.43,81,100,12.62,UA,1604204791
governador dix-sept rosado,-5.46,-37.52,77.45,74,40,10.04,BR,1604204791
portland,45.52,-122.68,52.0,81,20,4.7,US,1604204495
harper,4.38,-7.72,77.16,88,37,6.64,LR,1604204791
concordia,-31.39,-58.02,57.0,71,0,3.0,AR,1604204792
srednekolymsk,67.45,153.68,6.66,95,100,4.27,RU,1604204792
praia da vitoria,38.73,-27.07,71.6,88,75,19.53,PT,1604204792
aras,42.56,-2.36,51.01,93,0,2.24,ES,1604204793
ossora,59.24,163.07,37.08,81,100,8.28,RU,1604204794
kabin buri,13.95,101.72,86.05,69,2,7.16,TH,1604204794
luderitz,-26.65,15.16,60.8,54,0,13.96,NA,1604204795
camacha,33.08,-16.33,66.2,88,20,3.36,PT,1604204799
hue,16.47,107.6,84.2,70,75,10.29,VN,1604204727
atikokan,48.76,-91.62,22.82,94,100,16.69,CA,1604204799
sergeyevka,53.88,67.42,38.8,73,100,14.63,KZ,1604204799
north bend,43.41,-124.22,50.0,93,1,6.49,US,1604204586
kloulklubed,7.04,134.26,78.8,94,90,14.99,PW,1604204800
maracacume,-2.04,-45.96,72.54,94,1,2.19,BR,1604204800
whitehorse,60.72,-135.05,8.01,77,75,11.41,CA,1604204800
aitape,-3.14,142.35,85.78,73,94,10.18,PG,1604204800
turukhansk,65.82,87.98,20.64,97,100,20.78,RU,1604204801
kirkwall,58.98,-2.96,46.4,75,100,23.04,GB,1604204801
nuuk,64.18,-51.72,23.0,85,100,13.87,GL,1604204801
glenwood springs,39.55,-107.32,37.99,70,1,3.36,US,1604204780
ponta pora,-22.54,-55.73,62.19,90,0,3.56,BR,1604204801
kandrian,-6.22,149.55,85.73,67,33,6.85,PG,1604204802
viedma,-40.81,-63.0,57.99,56,0,11.48,AR,1604204802
bushehr,28.97,50.84,66.2,63,0,3.71,IR,1604204802
alta floresta,-9.88,-56.09,72.3,94,81,3.51,BR,1604204707
qaqortoq,60.72,-46.03,24.8,85,57,1.12,GL,1604204803
sofiyivka,48.05,33.87,46.4,93,90,4.47,UA,1604204803
erzin,36.96,36.2,64.0,72,55,8.01,TR,1604204803
monrovia,6.3,-10.8,78.13,87,0,6.31,LR,1604204803
marsh harbour,26.54,-77.06,79.74,82,11,18.3,BS,1604204804
lorengau,-2.02,147.27,84.7,76,26,7.18,PG,1604204684
liyang,29.71,118.29,61.45,82,100,1.39,CN,1604204804
manavalakurichi,8.13,77.3,84.2,79,20,2.24,IN,1604204805
tocopilla,-22.09,-70.2,61.14,60,0,1.66,CL,1604204805
meulaboh,4.14,96.13,86.0,61,100,3.33,ID,1604204805
sao filipe,14.9,-24.5,78.93,69,58,8.75,CV,1604204805
victor harbor,-35.57,138.62,63.0,72,0,1.99,AU,1604204805
makokou,0.57,12.86,69.3,98,100,2.39,GA,1604204677
boa vista,2.82,-60.67,80.6,83,40,4.7,BR,1604204806
boyolangu,-8.12,111.89,86.79,63,21,5.37,ID,1604204806
sechura,-5.56,-80.82,64.4,83,86,10.16,PE,1604204806
coihaique,-45.58,-72.07,51.8,66,0,5.82,CL,1604204605
baruun-urt,46.68,113.28,30.85,73,0,16.82,MN,1604204807
linfen,36.09,111.52,60.67,29,100,6.91,CN,1604204807
hastings,50.86,0.57,55.0,71,100,11.01,GB,1604204807
tromso,69.65,18.96,35.01,81,0,20.8,NO,1604204807
mildura,-34.2,142.15,79.0,36,0,6.93,AU,1604204808
xam nua,20.42,104.04,76.5,61,37,3.22,LA,1604204808
nome,64.5,-165.41,23.0,73,1,11.41,US,1604204808
cabedelo,-6.98,-34.83,77.0,88,20,5.82,BR,1604204808
oskarshamn,57.26,16.45,48.99,96,100,5.99,SE,1604204809
drochia,48.03,27.82,46.15,82,100,20.11,MD,1604204810
narsaq,60.92,-46.05,24.8,85,82,1.12,GL,1604204810
yemelyanovo,56.17,92.68,30.2,92,40,2.24,RU,1604204811
taoudenni,22.68,-3.98,72.41,23,40,14.03,ML,1604204812
westport,41.14,-73.36,41.0,66,90,6.2,US,1604204815
gandajika,-6.75,23.95,64.13,98,83,1.86,CD,1604204815
willowmore,-33.29,23.49,49.95,89,13,6.78,ZA,1604204815
dunedin,-45.87,170.5,64.0,54,93,15.37,NZ,1604204619
ban nahin,18.24,104.21,89.98,48,0,1.97,LA,1604204816
north platte,41.12,-100.77,37.4,64,1,6.93,US,1604204562
acarau,-2.89,-40.12,77.88,88,34,11.45,BR,1604204681
ruthin,53.11,-3.32,51.01,93,100,10.0,GB,1604204817
namatanai,-3.67,152.43,86.22,66,20,4.63,PG,1604204817
bindi,9.92,-11.45,68.43,73,19,1.79,SL,1604204817
clyde river,70.47,-68.59,8.6,84,90,19.46,CA,1604204818
san vicente,-26.62,-54.13,56.8,87,18,4.76,AR,1604204818
cabo san lucas,22.89,-109.91,77.0,69,5,5.82,MX,1604204699
kerman,30.28,57.08,42.8,28,0,4.7,IR,1604204818
balkanabat,39.51,54.37,70.07,22,0,4.83,TM,1604204818
maposeni,-10.58,35.4,68.0,77,75,5.48,TZ,1604204819
nalut,30.33,10.85,54.0,87,0,8.32,LY,1604204819
nueva gerona,21.88,-82.8,80.91,79,1,16.31,CU,1604204819
acapetahua,15.28,-92.7,75.99,76,45,3.65,MX,1604204819
bethel,41.37,-73.41,37.0,90,90,1.77,US,1604204820
albion,42.24,-84.75,48.2,61,1,11.41,US,1604204820
isla mujeres,21.23,-86.73,80.6,83,75,9.17,MX,1604204677
oussouye,12.48,-16.55,77.0,94,0,3.04,SN,1604204820
hambantota,6.12,81.12,84.85,67,71,3.27,LK,1604204686
sao pedro do sul,-29.62,-54.18,57.2,87,0,8.05,BR,1604204821
camacari,-12.7,-38.32,78.8,88,75,10.29,BR,1604204822
tommot,58.96,126.29,5.09,89,98,2.06,RU,1604204792
gurupi,-11.73,-49.07,72.54,92,100,3.38,BR,1604204822
severo-kurilsk,50.68,156.12,43.29,76,30,15.73,RU,1604204823
igarka,67.47,86.58,21.81,97,100,28.03,RU,1604204648
luwingu,-10.26,29.93,66.65,60,96,6.15,ZM,1604204823
timizart,36.8,4.27,56.44,56,25,3.29,DZ,1604204824
nioro,13.35,-15.75,75.43,43,97,3.04,GM,1604204824
puerto del rosario,28.5,-13.86,69.8,83,0,11.41,ES,1604204825
yeppoon,-23.13,150.73,91.4,36,19,8.05,AU,1604204825
champawat,29.33,80.1,69.8,64,20,2.24,IN,1604204826
goundam,16.41,-3.67,80.19,16,100,9.51,ML,1604204827
sambava,-14.27,50.17,72.43,67,50,9.31,MG,1604204827
olinda,-8.01,-34.86,80.6,78,75,5.82,BR,1604204831
yumen,40.28,97.2,48.33,43,95,20.67,CN,1604204831
sabzevar,36.21,57.68,51.8,34,0,9.17,IR,1604204593
deori khas,23.4,79.02,76.17,27,0,4.7,IN,1604204831
guerrero,17.67,-100.0,66.27,73,3,3.33,MX,1604204832
maiduguri,11.85,13.16,72.45,43,3,5.12,NG,1604204832
venado tuerto,-33.75,-61.97,53.01,74,0,5.01,AR,1604204832
sept-iles,50.2,-66.38,28.4,58,41,6.93,CA,1604204555
mapiripan,2.89,-72.13,73.06,98,100,4.38,CO,1604204833
aberystwyth,52.42,-4.08,51.01,87,100,3.0,GB,1604204833
puerto asis,0.51,-76.5,72.68,97,100,1.92,CO,1604204833
dali,25.7,100.18,64.2,75,78,4.32,CN,1604204834
bhadrachalam,17.67,80.88,79.48,68,3,4.05,IN,1604204834
quatre cocos,-20.21,57.76,77.0,60,40,16.11,MU,1604204834
miraflores,19.22,-98.81,66.2,45,40,5.82,MX,1604204834
college,64.86,-147.8,9.0,77,90,3.36,US,1604204835
apac,1.98,32.54,63.84,95,29,1.61,UG,1604204835
opunake,-39.46,173.86,60.01,78,100,14.0,NZ,1604204835
touros,-5.2,-35.46,75.2,94,20,3.36,BR,1604204836
punta de piedra,7.62,-71.49,74.07,90,96,2.1,VE,1604204836
aksha,50.28,113.29,26.13,82,99,15.17,RU,1604204836
hofn,64.25,-15.21,42.89,64,100,15.1,IS,1604204837
sur,22.57,59.53,77.58,41,0,1.92,OM,1604204690
kavieng,-2.57,150.8,85.1,72,21,8.28,PG,1604204837
necochea,-38.55,-58.74,48.99,84,0,4.0,AR,1604204837
haines junction,60.75,-137.51,8.6,65,100,9.17,CA,1604204838
pachino,36.72,15.09,57.0,93,2,3.36,IT,1604204838
kiunga,-6.12,141.29,95.27,46,16,3.91,PG,1604204838
roald,62.58,6.13,55.4,54,74,18.34,NO,1604204839
isangel,-19.55,169.27,79.74,73,75,14.07,VU,1604204840
alice springs,-23.7,133.88,87.8,12,0,3.36,AU,1604204639
teahupoo,-17.83,-149.27,82.4,58,20,4.7,PF,1604204842
burnie,-41.07,145.92,62.01,62,12,10.0,AU,1604204843
broome,42.25,-75.83,35.01,94,1,8.05,US,1604204843
liverpool,53.41,-2.98,51.8,76,40,17.22,GB,1604204843
kuytun,54.34,101.5,18.37,79,0,4.16,RU,1604204844
pangnirtung,66.15,-65.71,17.6,57,75,6.93,CA,1604204844
fukue,32.69,128.84,71.6,68,40,14.99,JP,1604204844
pascagoula,30.37,-88.56,55.4,93,1,1.21,US,1604204841
gemena,3.25,19.77,69.67,97,73,1.9,CD,1604204845
eltham,-39.43,174.3,60.01,77,100,14.0,NZ,1604204845
teya,60.38,92.63,23.49,94,100,7.87,RU,1604204845
takoradi,4.88,-1.76,77.56,88,75,4.47,GH,1604204846
mugur-aksy,50.35,90.5,26.71,80,5,3.04,RU,1604204846
campeni,46.37,23.05,36.0,84,5,4.7,RO,1604204846
winton,37.39,-120.61,59.0,76,1,2.95,US,1604204846
klyuchi,52.27,79.17,36.88,79,1,8.72,RU,1604204847
jurm,36.86,70.83,54.61,24,22,4.03,AF,1604204847
cherskiy,68.75,161.3,10.53,88,100,2.37,RU,1604204803
tucuman,-26.82,-65.22,60.8,48,0,1.7,AR,1604204848
la reforma,25.08,-108.05,73.99,60,0,1.01,MX,1604204848
wattegama,6.8,81.48,87.3,62,99,0.92,LK,1604204848
lermontovka,47.15,134.34,51.13,53,98,13.76,RU,1604204848
matagami,49.75,-77.63,33.8,74,90,16.11,CA,1604204849
riyadh,24.69,46.72,62.6,48,0,5.37,SA,1604204554
bam,29.11,58.36,68.95,20,0,2.39,IR,1604204849
asosa,10.07,34.53,63.39,88,59,3.18,ET,1604204849
galesong,-5.32,119.37,87.53,57,84,7.9,ID,1604204849
salihorsk,52.79,27.54,40.96,95,7,7.72,BY,1604204850
bakel,14.9,-12.46,79.02,17,27,6.89,SN,1604204850
berlevag,70.86,29.09,37.29,80,6,16.55,NO,1604204649
matara,5.95,80.54,85.42,65,98,7.72,LK,1604204850
eureka,40.8,-124.16,44.6,93,1,2.01,US,1604204717
klooga,59.32,24.21,44.6,93,90,5.82,EE,1604204851
jiazi,22.88,116.07,75.92,62,0,13.8,CN,1604204851
chontalpa,17.7,-93.52,68.41,97,62,3.15,MX,1604204851
pak chong,14.71,101.42,84.0,99,60,10.8,TH,1604204852
lukulu,-14.37,23.24,66.61,39,35,6.11,ZM,1604204852
hailin,44.58,129.42,49.37,46,2,18.54,CN,1604204852
dawei,14.08,98.2,88.52,61,42,3.76,MM,1604204853
lock haven,41.14,-77.45,36.0,97,8,5.12,US,1604204853
troutdale,45.54,-122.39,51.01,81,20,4.7,US,1604204854
wanning,18.8,110.4,79.2,70,20,14.25,CN,1604204855
la paz,-16.5,-68.15,41.0,93,75,6.93,BO,1604204857
petropavlovsk-kamchatskiy,53.05,158.65,46.4,49,100,11.18,RU,1604204646
kathu,7.92,98.33,86.0,74,20,5.82,TH,1604204859
henties bay,-22.12,14.28,53.01,94,22,1.99,NA,1604204695
labuhan,-6.88,112.21,77.29,85,99,2.77,ID,1604204859
punto fijo,11.7,-70.2,83.23,76,100,12.88,VE,1604204859
port keats,-14.25,129.55,93.42,44,1,10.27,AU,1604204860
luancheng,37.88,114.65,64.4,18,0,4.47,CN,1604204860
soke,13.6,-5.94,77.86,19,98,7.07,ML,1604204860
kotido,2.98,34.13,69.15,70,0,9.73,UG,1604204860
morristown,36.21,-83.29,48.2,81,1,3.53,US,1604204729
the pas,53.83,-101.25,10.4,92,1,2.24,CA,1604204861
aloleng,16.13,119.78,81.45,76,99,15.19,PH,1604204861
vostok,46.49,135.88,43.47,80,83,8.48,RU,1604204861
kayerkan,69.35,87.76,21.2,85,90,29.08,RU,1604204862
maneadero,31.72,-116.57,60.01,45,73,1.48,MX,1604204862
caramay,10.18,119.24,85.55,70,100,4.99,PH,1604204862
hobyo,5.35,48.53,80.6,75,25,4.0,SO,1604204863
chapais,49.78,-74.85,28.4,58,90,12.75,CA,1604204709
komsomolskiy,40.43,71.72,53.6,23,74,2.24,UZ,1604204863
saraland,30.82,-88.07,60.01,93,20,3.36,US,1604204864
tucano,-10.96,-38.79,72.55,86,87,7.02,BR,1604204864
guararapes,-21.26,-50.64,66.27,69,83,14.2,BR,1604204739
barra do garcas,-15.89,-52.26,71.46,94,100,2.24,BR,1604204728
japura,-0.32,102.35,90.66,56,96,4.23,ID,1604204865
aksarka,66.56,67.8,30.67,95,47,12.95,RU,1604204833
meghri,38.9,46.24,63.19,28,0,4.5,AM,1604204865
margate,51.38,1.39,54.0,72,100,5.99,GB,1604204866
risor,58.72,9.23,54.0,98,100,13.0,NO,1604204866
wabrzezno,53.28,18.95,45.0,93,0,4.0,PL,1604204866
nago,26.59,127.98,82.4,54,40,18.34,JP,1604204867
muros,42.78,-9.06,64.0,91,100,20.0,ES,1604204867
nizhnyaya salda,58.08,60.72,32.45,95,89,8.16,RU,1604204867
arcata,40.87,-124.08,44.6,93,1,1.66,US,1604204868
tres coroas,-29.52,-50.78,60.01,93,0,4.7,BR,1604204868
darnah,32.77,22.64,68.72,64,5,11.5,LY,1604204869
batemans bay,-35.72,150.18,68.0,80,80,7.0,AU,1604204869
san cayetano,7.88,-72.62,76.51,67,100,2.46,CO,1604204870
muana,-1.53,-49.22,77.95,84,0,5.26,BR,1604204871
chapada dos guimaraes,-15.46,-55.75,82.4,54,0,8.05,BR,1604204875
petatlan,17.52,-101.27,75.88,77,99,3.78,MX,1604204875
tucurui,-3.77,-49.67,77.92,75,35,2.37,BR,1604204876
mitchell,43.71,-98.03,37.4,51,1,13.87,US,1604204748
popondetta,-8.75,148.25,89.55,57,32,3.91,PG,1604204876
havelock,34.88,-76.9,57.2,82,1,8.05,US,1604204657
cockburn town,21.46,-71.14,82.38,78,99,20.11,TC,1604204648
coxim,-18.51,-54.76,74.41,62,100,7.9,BR,1604204877
nsoko,-27.03,31.95,64.24,80,100,5.44,SZ,1604204877
dhidhdhoo,6.88,73.1,82.53,68,21,3.18,MV,1604204877
kutum,14.2,24.67,68.99,37,21,11.18,SD,1604204649
tonantins,-2.87,-67.8,70.29,98,89,2.39,BR,1604204878
repalle,16.02,80.85,86.0,62,20,4.7,IN,1604204878
xai-xai,-25.05,33.64,72.37,81,46,7.14,MZ,1604204879
samarai,-10.62,150.67,83.37,76,88,9.71,PG,1604204879
meridian,43.61,-116.39,42.8,69,0,1.45,US,1604204671
reconquista,-29.15,-59.65,56.91,81,0,6.51,AR,1604204879
krasnoselkup,65.7,82.47,29.84,98,100,18.61,RU,1604204880
viransehir,37.24,39.76,57.72,33,23,7.16,TR,1604204880
kharp,66.8,65.81,31.5,98,29,8.77,RU,1604204880
urumqi,43.8,87.6,44.6,42,0,2.24,CN,1604204772
khetia,21.67,74.58,81.86,32,0,5.61,IN,1604204881
aleksandrovsk-sakhalinskiy,50.9,142.16,47.82,69,76,9.04,RU,1604204881
chicama,-7.84,-79.15,62.42,83,62,3.91,PE,1604204881
agirish,61.92,63.02,28.18,96,9,10.25,RU,1604204881
iwanai,42.97,140.51,55.81,74,99,6.76,JP,1604204882
lahaina,20.88,-156.68,82.4,65,40,10.29,US,1604204882
coruripe,-10.13,-36.18,76.51,87,100,12.01,BR,1604204882
ancud,-41.87,-73.82,48.2,81,0,5.82,CL,1604204800
usinsk,65.99,57.53,32.54,95,100,17.29,RU,1604204883
la ronge,55.1,-105.28,23.0,85,0,5.82,CA,1604204675
sao bernardo,-3.36,-42.42,75.96,90,68,4.74,BR,1604204732
yeniseysk,58.45,92.17,24.31,97,100,8.86,RU,1604204885
celestun,20.87,-90.4,77.0,88,99,11.74,MX,1604204885
caborca,30.58,-111.1,64.99,43,94,1.5,MX,1604204886
vao,-22.67,167.48,74.39,83,0,16.02,NC,1604204886
kashan,33.98,51.44,60.31,30,0,1.19,IR,1604204887
qasigiannguit,68.82,-51.19,19.4,73,89,13.87,GL,1604204887
lodwar,3.12,35.6,80.01,58,1,13.15,KE,1604204888
okato,-39.2,173.88,60.01,78,100,14.0,NZ,1604204888
akyab,20.15,92.9,78.85,88,100,10.22,MM,1604204889
heihe,50.24,127.49,32.0,94,75,8.95,CN,1604204889
kadhan,24.48,68.99,84.06,23,0,4.52,PK,1604204889
long beach,33.77,-118.19,68.0,72,1,5.82,US,1604204882
vazante,-17.99,-46.91,68.63,94,100,4.94,BR,1604204645
faranah,10.04,-10.74,67.71,73,1,0.72,GN,1604204890
porbandar,21.64,69.61,78.8,44,0,6.93,IN,1604204891
kholm,59.27,32.85,33.55,93,0,3.15,RU,1604204891
waipawa,-41.41,175.52,62.6,63,5,20.8,NZ,1604204891
laguna,38.42,-121.42,60.01,62,1,2.84,US,1604204756
rantepao,-2.97,119.9,81.54,57,100,1.28,ID,1604204892
thinadhoo,0.53,72.93,83.32,70,100,4.03,MV,1604204892
sarny,51.34,26.6,43.38,93,90,8.37,UA,1604204892
andrews,32.32,-102.55,59.0,41,1,10.29,US,1604204892
pangai,-19.8,-174.35,77.0,83,90,18.34,TO,1604204893
itapaci,-14.95,-49.55,68.16,96,99,1.39,BR,1604204893
astorga,-23.23,-51.67,62.6,77,0,6.93,BR,1604204893
aleksandrovskiy zavod,50.92,117.94,25.84,86,100,9.82,RU,1604204893
winnemucca,40.97,-117.74,37.4,40,1,3.36,US,1604204894
mataram,-8.58,116.12,89.6,62,16,6.93,ID,1604204894
rongcheng,30.63,117.85,67.12,67,73,2.35,CN,1604204894
wenceslau braz,-23.87,-49.8,57.99,99,44,4.0,BR,1604204609
pacific grove,36.62,-121.92,60.8,54,1,5.82,US,1604204732
cururupu,-1.83,-44.87,74.19,94,65,2.35,BR,1604204895
gornyye klyuchi,45.25,133.5,55.42,44,41,16.6,RU,1604204895
linqiong,30.42,103.46,69.01,77,0,5.35,CN,1604204895
staunton,38.15,-79.07,41.0,93,40,4.7,US,1604204896
